{"type":"FeatureCollection","features":[{"type":"Feature","id":52,"geometry":{"type":"Point","coordinates":[-109.756948611,38.8196171415153]},"properties":{"OBJECTID":52,"PrimaryName":"Klondike North","TrailheadID":"OV2155060","Features":null,"PrimaryMaintenance":null,"SeasonalRestriction":null,"InfoURL":null,"Comments":"OVPrimaryUseMTB","DataSource":"OrbitalView","LastUpdate":null}},{"type":"Feature","id":54,"geometry":{"type":"Point","coordinates":[-109.724948425995,38.7320989622563]},"properties":{"OBJECTID":54,"PrimaryName":"Fallen Peace Officer","TrailheadID":"OV2254340","Features":null,"PrimaryMaintenance":null,"SeasonalRestriction":null,"InfoURL":null,"Comments":"OVPrimaryUseMTB","DataSource":"OrbitalView","LastUpdate":null}},{"type":"Feature","id":55,"geometry":{"type":"Point","coordinates":[-109.712571667081,38.773769972417]},"properties":{"OBJECTID":55,"PrimaryName":"Klondike South","TrailheadID":"OV2267834","Features":null,"PrimaryMaintenance":null,"SeasonalRestriction":null,"InfoURL":null,"Comments":"OVPrimaryUseMTB","DataSource":"OrbitalView","LastUpdate":null}},{"type":"Feature","id":56,"geometry":{"type":"Point","coordinates":[-109.733763601065,38.7408601264051]},"properties":{"OBJECTID":56,"PrimaryName":"Baby Steps","TrailheadID":"OV2285255","Features":null,"PrimaryMaintenance":null,"SeasonalRestriction":null,"InfoURL":null,"Comments":"OVPrimaryUseMTB","DataSource":"OrbitalView","LastUpdate":null}},{"type":"Feature","id":57,"geometry":{"type":"Point","coordinates":[-109.763298276229,38.8299504292443]},"properties":{"OBJECTID":57,"PrimaryName":"Dino Tracks","TrailheadID":"OV2293603","Features":null,"PrimaryMaintenance":null,"SeasonalRestriction":null,"InfoURL":null,"Comments":"OVPrimaryUseMTB","DataSource":"OrbitalView","LastUpdate":null}},{"type":"Feature","id":65,"geometry":{"type":"Point","coordinates":[-109.732632739801,38.7252133754217]},"properties":{"OBJECTID":65,"PrimaryName":"Monitor and Merrimac","TrailheadID":"OV2448714","Features":null,"PrimaryMaintenance":null,"SeasonalRestriction":null,"InfoURL":null,"Comments":"OVPrimaryUseMTB","DataSource":"OrbitalView","LastUpdate":null}},{"type":"Feature","id":245,"geometry":{"type":"Point","coordinates":[-109.703036730365,38.7113887681829]},"properties":{"OBJECTID":245,"PrimaryName":"Sovereign/Cedar Mtn","TrailheadID":"OV7344233","Features":null,"PrimaryMaintenance":null,"SeasonalRestriction":null,"InfoURL":null,"Comments":"OVPrimaryUseMTB","DataSource":"OrbitalView","LastUpdate":null}},{"type":"Feature","id":380,"geometry":{"type":"Point","coordinates":[-109.652341876662,38.7021710504865]},"properties":{"OBJECTID":380,"PrimaryName":"Klonzo A","TrailheadID":"OV8348889","Features":null,"PrimaryMaintenance":null,"SeasonalRestriction":null,"InfoURL":null,"Comments":"OVPrimaryUseMTB","DataSource":"OrbitalView","LastUpdate":null}},{"type":"Feature","id":384,"geometry":{"type":"Point","coordinates":[-109.645512193068,38.7032083520875]},"properties":{"OBJECTID":384,"PrimaryName":"Klonzo B","TrailheadID":"OV8944939","Features":null,"PrimaryMaintenance":null,"SeasonalRestriction":null,"InfoURL":null,"Comments":"OVPrimaryUseMTB","DataSource":"OrbitalView","LastUpdate":null}},{"type":"Feature","id":385,"geometry":{"type":"Point","coordinates":[-109.767799869763,38.8183953890167]},"properties":{"OBJECTID":385,"PrimaryName":"North Klondike Bluffs","TrailheadID":"OV8945991","Features":null,"PrimaryMaintenance":null,"SeasonalRestriction":null,"InfoURL":null,"Comments":"OVPrimaryUseMTB","DataSource":"OrbitalView","LastUpdate":null}}]}